,name,lat,lng,capital,tag,prime
0,Berlin,52.5167,13.3833,Germany,berlin,is_city
1,Hamburg,53.55,10.0,Germany,hamburg,is_city
2,Munich,48.1372,11.5755,Germany,munich,is_city
3,Cologne,50.9422,6.9578,Germany,cologne,is_city
4,Frankfurt,50.1136,8.6797,Germany,frankfurt,is_city
5,Bremen,53.1153,8.7975,Germany,bremen,is_city
6,Dusseldorf,51.2311,6.7724,Germany,dusseldorf,is_city
7,Stuttgart,48.7761,9.1775,Germany,stuttgart,is_city
8,Leipzig,51.3333,12.3833,Germany,leipzig,is_city
9,Dortmund,51.5139,7.4653,Germany,dortmund,is_city
10,Essen,51.4508,7.0131,Germany,essen,is_city
11,Dresden,51.05,13.74,Germany,dresden,is_city
12,Hannover,52.3744,9.7386,Germany,hannover,is_city
13,Nuremberg,49.4539,11.0775,Germany,nuremberg,is_city
14,Duisburg,51.4322,6.7611,Germany,duisburg,is_city
15,Bochum,51.4833,7.2167,Germany,bochum,is_city
16,Wuppertal,51.2667,7.1833,Germany,wuppertal,is_city
17,Bielefeld,52.0167,8.5333,Germany,bielefeld,is_city
18,Bonn,50.7339,7.0997,Germany,bonn,is_city
19,Munster,51.9625,7.6256,Germany,munster,is_city
20,Karlsruhe,49.0167,8.4,Germany,karlsruhe,is_city
21,Mannheim,49.4878,8.4661,Germany,mannheim,is_city
22,Augsburg,48.3717,10.8983,Germany,augsburg,is_city
23,Kassel,51.3166,9.4912,Germany,kassel,is_city
24,Wiesbaden,50.0825,8.24,Germany,wiesbaden,is_city
25,Monchengladbach,51.2,6.4333,Germany,monchengladbach,is_city
26,Gelsenkirchen,51.5167,7.1,Germany,gelsenkirchen,is_city
27,Braunschweig,52.2692,10.5211,Germany,braunschweig,is_city
28,Aachen,50.7762,6.0838,Germany,aachen,is_city
29,Kiel,54.3233,10.1394,Germany,kiel,is_city
30,Chemnitz,50.8333,12.9167,Germany,chemnitz,is_city
31,Halle,51.4828,11.9697,Germany,halle,is_city
32,Magdeburg,52.1278,11.6292,Germany,magdeburg,is_city
33,Freiburg im Breisgau,47.9947,7.8497,Germany,freiburg im breisgau,is_city
34,Krefeld,51.3333,6.5667,Germany,krefeld,is_city
35,Mainz,50.0,8.2667,Germany,mainz,is_city
36,Lubeck,53.8697,10.6864,Germany,lubeck,is_city
37,Oberhausen,51.4699,6.8514,Germany,oberhausen,is_city
38,Rostock,54.0833,12.1333,Germany,rostock,is_city
39,Erfurt,50.9787,11.0328,Germany,erfurt,is_city
40,Hagen,51.3594,7.475,Germany,hagen,is_city
41,Potsdam,52.4,13.0667,Germany,potsdam,is_city
42,Saarbrucken,49.2333,7.0,Germany,saarbrucken,is_city
43,Hamm,51.6667,7.8167,Germany,hamm,is_city
44,Ludwigshafen,49.4811,8.4353,Germany,ludwigshafen,is_city
45,Mulheim,51.4275,6.8825,Germany,mulheim,is_city
46,Oldenburg,53.1439,8.2139,Germany,oldenburg,is_city
47,Osnabruck,52.2789,8.0431,Germany,osnabruck,is_city
48,Leverkusen,51.0333,6.9833,Germany,leverkusen,is_city
49,Heidelberg,49.4122,8.71,Germany,heidelberg,is_city
50,Solingen,51.1667,7.0833,Germany,solingen,is_city
51,Darmstadt,49.8667,8.65,Germany,darmstadt,is_city
52,Herne,51.5426,7.219,Germany,herne,is_city
53,Neuss,51.2003,6.6939,Germany,neuss,is_city
54,Regensburg,49.0167,12.0833,Germany,regensburg,is_city
55,Paderborn,51.7167,8.7667,Germany,paderborn,is_city
56,Ingolstadt,48.7636,11.4261,Germany,ingolstadt,is_city
57,Wurzburg,49.7944,9.9294,Germany,wurzburg,is_city
58,Furth,49.4783,10.9903,Germany,furth,is_city
59,Ulm,48.3984,9.9916,Germany,ulm,is_city
60,Heilbronn,49.1404,9.218,Germany,heilbronn,is_city
61,Pforzheim,48.895,8.705,Germany,pforzheim,is_city
62,Wolfsburg,52.4231,10.7872,Germany,wolfsburg,is_city
63,Gottingen,51.5339,9.9356,Germany,gottingen,is_city
64,Bottrop,51.5232,6.9253,Germany,bottrop,is_city
65,Reutlingen,48.4833,9.2167,Germany,reutlingen,is_city
66,Koblenz,50.3597,7.5978,Germany,koblenz,is_city
67,Bremerhaven,53.55,8.5833,Germany,bremerhaven,is_city
68,Recklinghausen,51.6167,7.2,Germany,recklinghausen,is_city
69,Bergisch Gladbach,50.9917,7.1367,Germany,bergisch gladbach,is_city
70,Erlangen,49.5964,11.0044,Germany,erlangen,is_city
71,Jena,50.9272,11.5864,Germany,jena,is_city
72,Remscheid,51.1802,7.1872,Germany,remscheid,is_city
73,Trier,49.7567,6.6414,Germany,trier,is_city
74,Salzgitter,52.1503,10.3593,Germany,salzgitter,is_city
75,Moers,51.4592,6.6197,Germany,moers,is_city
76,Siegen,50.8756,8.0167,Germany,siegen,is_city
77,Hildesheim,52.15,9.95,Germany,hildesheim,is_city
78,Cottbus,51.7606,14.3342,Germany,cottbus,is_city
79,Gutersloh,51.9,8.3833,Germany,gutersloh,is_city
80,Kaiserslautern,49.4447,7.7689,Germany,kaiserslautern,is_city
81,Witten,51.4333,7.3333,Germany,witten,is_city
82,Hanau,50.1328,8.9169,Germany,hanau,is_city
83,Schwerin,53.6333,11.4167,Germany,schwerin,is_city
84,Gera,50.8782,12.0824,Germany,gera,is_city
85,Esslingen,48.7406,9.3108,Germany,esslingen,is_city
86,Ludwigsburg,48.8975,9.1919,Germany,ludwigsburg,is_city
87,Iserlohn,51.3833,7.6667,Germany,iserlohn,is_city
88,Duren,50.8,6.4833,Germany,duren,is_city
89,Tubingen,48.52,9.0556,Germany,tubingen,is_city
90,Flensburg,54.7819,9.4367,Germany,flensburg,is_city
91,Zwickau,50.7189,12.4961,Germany,zwickau,is_city
92,Giessen,50.5833,8.6667,Germany,giessen,is_city
93,Ratingen,51.3,6.85,Germany,ratingen,is_city
94,Lunen,51.6167,7.5167,Germany,lunen,is_city
95,Villingen-Schwenningen,48.0603,8.4586,Germany,villingen-schwenningen,is_city
96,Konstanz,47.6633,9.1753,Germany,konstanz,is_city
97,Marl,51.6667,7.1167,Germany,marl,is_city
98,Worms,49.6319,8.3653,Germany,worms,is_city
99,Velbert,51.34,7.0416,Germany,velbert,is_city
100,Minden,52.2883,8.9167,Germany,minden,is_city
101,Dessau-Rosslau,51.8333,12.2333,Germany,dessau-rosslau,is_city
102,Neumunster,54.0714,9.99,Germany,neumunster,is_city
103,Norderstedt,53.7064,10.0103,Germany,norderstedt,is_city
104,Delmenhorst,53.0506,8.6317,Germany,delmenhorst,is_city
105,Bamberg,49.8917,10.8917,Germany,bamberg,is_city
106,Viersen,51.2556,6.3917,Germany,viersen,is_city
107,Marburg,50.8167,8.7667,Germany,marburg,is_city
108,Rheine,52.2833,7.4333,Germany,rheine,is_city
109,Wilhelmshaven,53.5167,8.1333,Germany,wilhelmshaven,is_city
110,Gladbeck,51.5713,6.9827,Germany,gladbeck,is_city
111,Luneburg,53.2525,10.4144,Germany,luneburg,is_city
112,Troisdorf,50.8161,7.1556,Germany,troisdorf,is_city
113,Dorsten,51.66,6.9642,Germany,dorsten,is_city
114,Bayreuth,49.9481,11.5783,Germany,bayreuth,is_city
115,Detmold,51.9378,8.8833,Germany,detmold,is_city
116,Arnsberg,51.3967,8.0644,Germany,arnsberg,is_city
117,Castrop-Rauxel,51.55,7.3167,Germany,castrop-rauxel,is_city
118,Ludenscheid,51.2198,7.6273,Germany,ludenscheid,is_city
119,Landshut,48.5397,12.1508,Germany,landshut,is_city
120,Brandenburg,52.4117,12.5561,Germany,brandenburg,is_city
121,Bocholt,51.8333,6.6167,Germany,bocholt,is_city
122,Aschaffenburg,49.9757,9.1478,Germany,aschaffenburg,is_city
123,Celle,52.6256,10.0825,Germany,celle,is_city
124,Kempten,47.7333,10.3167,Germany,kempten,is_city
125,Fulda,50.5528,9.6775,Germany,fulda,is_city
126,Aalen,48.8372,10.0936,Germany,aalen,is_city
127,Lippstadt,51.6667,8.35,Germany,lippstadt,is_city
128,Dinslaken,51.5667,6.7333,Germany,dinslaken,is_city
129,Herford,52.1146,8.6734,Germany,herford,is_city
130,Kerpen,50.8719,6.6961,Germany,kerpen,is_city
131,Russelsheim,49.995,8.4119,Germany,russelsheim,is_city
132,Weimar,50.9833,11.3167,Germany,weimar,is_city
133,Plauen,50.495,12.1383,Germany,plauen,is_city
134,Sindelfingen,48.7133,9.0028,Germany,sindelfingen,is_city
135,Neuwied,50.4286,7.4614,Germany,neuwied,is_city
136,Dormagen,51.0964,6.84,Germany,dormagen,is_city
137,Neubrandenburg,53.5569,13.2608,Germany,neubrandenburg,is_city
138,Grevenbroich,51.0883,6.5875,Germany,grevenbroich,is_city
139,Rosenheim,47.8561,12.1289,Germany,rosenheim,is_city
140,Herten,51.6,7.1333,Germany,herten,is_city
141,Bergheim,50.9667,6.65,Germany,bergheim,is_city
142,Schwabisch Gmund,48.8,9.8,Germany,schwabisch gmund,is_city
143,Friedrichshafen,47.6542,9.4792,Germany,friedrichshafen,is_city
144,Garbsen,52.4183,9.5981,Germany,garbsen,is_city
145,Wesel,51.6586,6.6178,Germany,wesel,is_city
146,Hurth,50.8775,6.8761,Germany,hurth,is_city
147,Offenburg,48.4708,7.9408,Germany,offenburg,is_city
148,Stralsund,54.3092,13.0819,Germany,stralsund,is_city
149,Greifswald,54.0833,13.3833,Germany,greifswald,is_city
150,Langenfeld,51.1167,6.95,Germany,langenfeld,is_city
151,Neu-Ulm,48.3833,10.0,Germany,neu-ulm,is_city
152,Unna,51.5347,7.6889,Germany,unna,is_city
153,Euskirchen,50.6613,6.7873,Germany,euskirchen,is_city
154,Frankfurt (Oder),52.35,14.55,Germany,frankfurt (oder),is_city
155,Goppingen,48.7025,9.6528,Germany,goppingen,is_city
156,Hameln,52.1031,9.36,Germany,hameln,is_city
157,Stolberg,50.7667,6.2333,Germany,stolberg,is_city
158,Eschweiler,50.8167,6.2833,Germany,eschweiler,is_city
159,Gorlitz,51.1528,14.9872,Germany,gorlitz,is_city
160,Langenhagen,52.4394,9.74,Germany,langenhagen,is_city
161,Meerbusch,51.2667,6.6667,Germany,meerbusch,is_city
162,Sankt Augustin,50.77,7.1867,Germany,sankt augustin,is_city
163,Hilden,51.1714,6.9394,Germany,hilden,is_city
164,Waiblingen,48.8303,9.3169,Germany,waiblingen,is_city
165,Baden-Baden,48.7619,8.2408,Germany,baden-baden,is_city
166,Hattingen,51.3992,7.1858,Germany,hattingen,is_city
167,Lingen,52.5233,7.3172,Germany,lingen,is_city
168,Bad Homburg,50.2292,8.6105,Germany,bad homburg,is_city
169,Bad Salzuflen,52.0875,8.7506,Germany,bad salzuflen,is_city
170,Pulheim,51.0,6.8,Germany,pulheim,is_city
171,Schweinfurt,50.05,10.2333,Germany,schweinfurt,is_city
172,Nordhorn,52.4333,7.0667,Germany,nordhorn,is_city
173,Neustadt,49.3443,8.1952,Germany,neustadt,is_city
174,Wetzlar,50.5667,8.5,Germany,wetzlar,is_city
175,Ahlen,51.7633,7.8911,Germany,ahlen,is_city
176,Frechen,50.9167,6.8167,Germany,frechen,is_city
177,Passau,48.5667,13.4667,Germany,passau,is_city
178,Wolfenbuttel,52.1622,10.5369,Germany,wolfenbuttel,is_city
179,Ibbenburen,52.2778,7.7167,Germany,ibbenburen,is_city
180,Kleve,51.79,6.14,Germany,kleve,is_city
181,Bad Kreuznach,49.8469,7.8669,Germany,bad kreuznach,is_city
182,Goslar,51.906,10.4292,Germany,goslar,is_city
183,Gummersbach,51.0333,7.5667,Germany,gummersbach,is_city
184,Ravensburg,47.7831,9.6114,Germany,ravensburg,is_city
185,Willich,51.2631,6.5492,Germany,willich,is_city
186,Speyer,49.3194,8.4311,Germany,speyer,is_city
187,Boblingen,48.6833,9.0,Germany,boblingen,is_city
188,Peine,52.3203,10.2336,Germany,peine,is_city
189,Emden,53.3669,7.2061,Germany,emden,is_city
190,Elmshorn,53.7547,9.6536,Germany,elmshorn,is_city
191,Erftstadt,50.8167,6.7667,Germany,erftstadt,is_city
192,Rastatt,48.8572,8.2031,Germany,rastatt,is_city
193,Heidenheim,48.6761,10.1544,Germany,heidenheim,is_city
194,Lorrach,47.6156,7.6614,Germany,lorrach,is_city
195,Leonberg,48.8014,9.0131,Germany,leonberg,is_city
196,Bergkamen,51.6167,7.6333,Germany,bergkamen,is_city
197,Bad Oeynhausen,52.2,8.8,Germany,bad oeynhausen,is_city
198,Freising,48.4028,11.7489,Germany,freising,is_city
199,Rheda-Wiedenbruck,51.8417,8.3,Germany,rheda-wiedenbruck,is_city
200,Cuxhaven,53.8667,8.7,Germany,cuxhaven,is_city
201,Bornheim,50.7592,7.005,Germany,bornheim,is_city
202,Gronau,52.2125,7.0417,Germany,gronau,is_city
203,Straubing,48.8772,12.5758,Germany,straubing,is_city
204,Stade,53.6008,9.4764,Germany,stade,is_city
205,Soest,51.5711,8.1092,Germany,soest,is_city
206,Dachau,48.2603,11.4342,Germany,dachau,is_city
207,Alsdorf,50.8744,6.1615,Germany,alsdorf,is_city
208,Landau,49.1994,8.1231,Germany,landau,is_city
209,Dulmen,51.8308,7.2783,Germany,dulmen,is_city
210,Melle,52.2031,8.3361,Germany,melle,is_city
211,Neunkirchen,49.3448,7.1799,Germany,neunkirchen,is_city
212,Herzogenrath,50.8667,6.1,Germany,herzogenrath,is_city
213,Schwerte,51.4458,7.5653,Germany,schwerte,is_city
214,Oberursel,50.2028,8.5769,Germany,oberursel,is_city
215,Wittenberg,51.8671,12.6484,Germany,wittenberg,is_city
216,Hof,50.3167,11.9167,Germany,hof,is_city
217,Filderstadt,48.6667,9.2167,Germany,filderstadt,is_city
218,Gotha,50.9489,10.7183,Germany,gotha,is_city
219,Fellbach,48.8086,9.2758,Germany,fellbach,is_city
220,Bunde,52.2,8.6,Germany,bunde,is_city
221,Albstadt,48.2119,9.0239,Germany,albstadt,is_city
222,Weinheim,49.5561,8.6697,Germany,weinheim,is_city
223,Rodgau,50.0256,8.8841,Germany,rodgau,is_city
224,Bruchsal,49.1333,8.6,Germany,bruchsal,is_city
225,Oranienburg,52.7544,13.2369,Germany,oranienburg,is_city
226,Bruhl,50.8333,6.9,Germany,bruhl,is_city
227,Erkrath,51.2239,6.9147,Germany,erkrath,is_city
228,Neustadt am Rubenberge,52.5055,9.4636,Germany,neustadt am rubenberge,is_city
229,Lehrte,52.3725,9.9769,Germany,lehrte,is_city
230,Kaufbeuren,47.88,10.6225,Germany,kaufbeuren,is_city
231,Falkensee,52.5583,13.0917,Germany,falkensee,is_city
232,Memmingen,47.9878,10.1811,Germany,memmingen,is_city
233,Kaarst,51.2278,6.6273,Germany,kaarst,is_city
234,Erkelenz,51.08,6.3156,Germany,erkelenz,is_city
235,Pinneberg,53.6591,9.8009,Germany,pinneberg,is_city
236,Bietigheim-Bissingen,48.9667,9.1333,Germany,bietigheim-bissingen,is_city
237,Kamen,51.5917,7.6653,Germany,kamen,is_city
238,Wismar,53.8925,11.465,Germany,wismar,is_city
239,Borken,51.8439,6.8583,Germany,borken,is_city
240,Gifhorn,52.4886,10.5464,Germany,gifhorn,is_city
241,Nettetal,51.3167,6.2833,Germany,nettetal,is_city
242,Eisenach,50.9747,10.3244,Germany,eisenach,is_city
243,Dreieich,50.0189,8.6961,Germany,dreieich,is_city
244,Aurich,53.4714,7.4836,Germany,aurich,is_city
245,Amberg,49.4444,11.8483,Germany,amberg,is_city
246,Heinsberg,51.0631,6.0964,Germany,heinsberg,is_city
247,Ansbach,49.3,10.5833,Germany,ansbach,is_city
248,Homburg,49.3167,7.3333,Germany,homburg,is_city
249,Nordhausen,51.505,10.7911,Germany,nordhausen,is_city
250,Wunstorf,52.4238,9.4359,Germany,wunstorf,is_city
251,Seevetal,53.3833,10.0333,Germany,seevetal,is_city
252,Siegburg,50.8014,7.2044,Germany,siegburg,is_city
253,Laatzen,52.3077,9.8133,Germany,laatzen,is_city
254,Germering,48.1333,11.3667,Germany,germering,is_city
255,Coburg,50.2585,10.9579,Germany,coburg,is_city
256,Konigswinter,50.6833,7.1833,Germany,konigswinter,is_city
257,Nurtingen,48.6267,9.3353,Germany,nurtingen,is_city
258,Freiberg,50.9119,13.3428,Germany,freiberg,is_city
259,Schwabach,49.3292,11.0208,Germany,schwabach,is_city
260,Lemgo,52.0277,8.9043,Germany,lemgo,is_city
261,Kirchheim unter Teck,48.6483,9.4511,Germany,kirchheim unter teck,is_city
262,Bensheim,49.6811,8.6228,Germany,bensheim,is_city
263,Schwabisch Hall,49.1122,9.7375,Germany,schwabisch hall,is_city
264,Weissenfels,51.2,11.9667,Germany,weissenfels,is_city
265,Pirmasens,49.2,7.6,Germany,pirmasens,is_city
266,Eberswalde,52.8331,13.8331,Germany,eberswalde,is_city
267,Halberstadt,51.8958,11.0467,Germany,halberstadt,is_city
268,Buxtehude,53.4769,9.7011,Germany,buxtehude,is_city
269,Leinfelden-Echterdingen,48.6928,9.1428,Germany,leinfelden-echterdingen,is_city
270,Neumarkt,49.2833,11.4667,Germany,neumarkt,is_city
271,Huckelhoven,51.0608,6.2197,Germany,huckelhoven,is_city
272,Hofheim,50.0876,8.4447,Germany,hofheim,is_city
273,Lohne,52.2,8.7,Germany,lohne,is_city
274,Schorndorf,48.8,9.5333,Germany,schorndorf,is_city
275,Stendal,52.6,11.85,Germany,stendal,is_city
276,Freital,51.0167,13.65,Germany,freital,is_city
277,Volklingen,49.25,6.8333,Germany,volklingen,is_city
278,Ettlingen,48.9333,8.4,Germany,ettlingen,is_city
279,Ostfildern,48.7228,9.2631,Germany,ostfildern,is_city
280,Maintal,50.15,8.8333,Germany,maintal,is_city
281,Buchholz in der Nordheide,53.3285,9.8621,Germany,buchholz in der nordheide,is_city
282,Ahaus,52.0794,7.0134,Germany,ahaus,is_city
283,Ilmenau,50.6872,10.9142,Germany,ilmenau,is_city
284,Mettmann,51.25,6.9667,Germany,mettmann,is_city
285,Wurselen,50.8247,6.1275,Germany,wurselen,is_city
286,Bitterfeld,51.6167,12.3167,Germany,bitterfeld,is_city
287,Bautzen,51.1814,14.4239,Germany,bautzen,is_city
288,Pirna,50.9622,13.9403,Germany,pirna,is_city
289,Niederkassel,50.8167,7.0333,Germany,niederkassel,is_city
290,Langen,49.9893,8.6803,Germany,langen,is_city
291,Greven,52.0917,7.6083,Germany,greven,is_city
292,Furstenfeldbruck,48.1778,11.2556,Germany,furstenfeldbruck,is_city
293,Neu Isenburg,50.0558,8.6971,Germany,neu isenburg,is_city
294,Papenburg,53.0667,7.4,Germany,papenburg,is_city
295,Kamp-Lintfort,51.5,6.5333,Germany,kamp-lintfort,is_city
296,Backnang,48.9464,9.4306,Germany,backnang,is_city
297,Warendorf,51.9539,7.9933,Germany,warendorf,is_city
298,Konigs Wusterhausen,52.2917,13.625,Germany,konigs wusterhausen,is_city
299,Suhl,50.6106,10.6931,Germany,suhl,is_city
300,Beckum,51.7558,8.0408,Germany,beckum,is_city
301,Erding,48.3001,11.9082,Germany,erding,is_city
302,Coesfeld,51.9458,7.1675,Germany,coesfeld,is_city
303,Muhlhausen,51.2167,10.45,Germany,muhlhausen,is_city
304,Wesseling,50.8207,6.9786,Germany,wesseling,is_city
305,Kehl,48.5711,7.8089,Germany,kehl,is_city
306,Emsdetten,52.1728,7.5344,Germany,emsdetten,is_city
307,Tuttlingen,47.985,8.8233,Germany,tuttlingen,is_city
308,Sankt Ingbert,49.3,7.1167,Germany,sankt ingbert,is_city
309,Porta Westfalica,52.2167,8.9333,Germany,porta westfalica,is_city
310,Sinsheim,49.25,8.8833,Germany,sinsheim,is_city
311,Meppen,52.6906,7.291,Germany,meppen,is_city
312,Limburg,50.3833,8.0667,Germany,limburg,is_city
313,Ingelheim,49.9747,8.0564,Germany,ingelheim,is_city
314,Lage,51.9833,8.8,Germany,lage,is_city
315,Cloppenburg,52.8478,8.0439,Germany,cloppenburg,is_city
316,Winsen,53.3667,10.2167,Germany,winsen,is_city
317,Morfelden-Walldorf,49.9896,8.5661,Germany,morfelden-walldorf,is_city
318,Wermelskirchen,51.1392,7.2051,Germany,wermelskirchen,is_city
319,Datteln,51.6539,7.3417,Germany,datteln,is_city
320,Kempen,51.3658,6.4194,Germany,kempen,is_city
321,Saarlouis,49.3167,6.75,Germany,saarlouis,is_city
322,Leer,53.2308,7.4528,Germany,leer,is_city
323,Seelze,52.3961,9.5981,Germany,seelze,is_city
324,Crailsheim,49.1347,10.0706,Germany,crailsheim,is_city
325,Barsinghausen,52.3031,9.4606,Germany,barsinghausen,is_city
326,Balingen,48.2731,8.8506,Germany,balingen,is_city
327,Zweibrucken,49.2494,7.3608,Germany,zweibrucken,is_city
328,Viernheim,49.538,8.5792,Germany,viernheim,is_city
329,Steinfurt,52.1504,7.3366,Germany,steinfurt,is_city
330,Merseburg,51.3544,11.9928,Germany,merseburg,is_city
331,Hemer,51.3833,7.7667,Germany,hemer,is_city
332,Dietzenbach,50.0086,8.7756,Germany,dietzenbach,is_city
333,Radebeul,51.1033,13.67,Germany,radebeul,is_city
334,Bad Vilbel,50.1781,8.7361,Germany,bad vilbel,is_city
335,Geldern,51.5197,6.3325,Germany,geldern,is_city
336,Goch,51.6839,6.1619,Germany,goch,is_city
337,Kornwestheim,48.8597,9.185,Germany,kornwestheim,is_city
338,Stuhr,53.0167,8.75,Germany,stuhr,is_city
339,Uelzen,52.9647,10.5658,Germany,uelzen,is_city
340,Deggendorf,48.8353,12.9644,Germany,deggendorf,is_city
341,Wedel,53.5833,9.7,Germany,wedel,is_city
342,Ahrensburg,53.6747,10.2411,Germany,ahrensburg,is_city
343,Rheinfelden (Baden),47.5611,7.7917,Germany,rheinfelden (baden),is_city
344,Korschenbroich,51.1833,6.5167,Germany,korschenbroich,is_city
345,Biberach,48.0981,9.7886,Germany,biberach,is_city
346,Wernigerode,51.835,10.7853,Germany,wernigerode,is_city
347,Bernburg,51.8,11.7333,Germany,bernburg,is_city
348,Julich,50.9222,6.3583,Germany,julich,is_city
349,Lampertheim,49.5942,8.4671,Germany,lampertheim,is_city
350,Vechta,52.7306,8.2886,Germany,vechta,is_city
351,Naumburg,51.1521,11.8098,Germany,naumburg,is_city
352,Forchheim,49.7197,11.0581,Germany,forchheim,is_city
353,Bad Nauheim,50.3667,8.75,Germany,bad nauheim,is_city
354,Hoyerswerda,51.4331,14.25,Germany,hoyerswerda,is_city
355,Altenburg,50.985,12.4333,Germany,altenburg,is_city
356,Delbruck,51.7667,8.5667,Germany,delbruck,is_city
357,Furstenwalde,52.3667,14.0667,Germany,furstenwalde,is_city
358,Achim,53.013,9.033,Germany,achim,is_city
359,Itzehoe,53.925,9.5164,Germany,itzehoe,is_city
360,Georgsmarienhutte,52.2031,8.0447,Germany,georgsmarienhutte,is_city
361,Herrenberg,48.5967,8.8708,Germany,herrenberg,is_city
362,Oer-Erkenschwick,51.6422,7.2508,Germany,oer-erkenschwick,is_city
363,Radolfzell am Bodensee,47.7369,8.9697,Germany,radolfzell am bodensee,is_city
364,Kreuztal,50.962,8.0064,Germany,kreuztal,is_city
365,Ganderkesee,53.0358,8.5483,Germany,ganderkesee,is_city
366,Rheinberg,51.5467,6.6006,Germany,rheinberg,is_city
367,Bramsche,52.4089,7.9728,Germany,bramsche,is_city
368,Neuruppin,52.9222,12.8,Germany,neuruppin,is_city
369,Einbeck,51.8167,9.8667,Germany,einbeck,is_city
370,Werl,51.5528,7.9139,Germany,werl,is_city
371,Schonebeck,52.0167,11.75,Germany,schonebeck,is_city
372,Burgdorf,52.4438,10.0078,Germany,burgdorf,is_city
373,Gevelsberg,51.3265,7.3559,Germany,gevelsberg,is_city
374,Weyhe,52.9936,8.8733,Germany,weyhe,is_city
375,Geesthacht,53.4375,10.3675,Germany,geesthacht,is_city
376,Haan,51.1931,7.0131,Germany,haan,is_city
377,Lohmar,50.8415,7.2166,Germany,lohmar,is_city
378,Osterholz-Scharmbeck,53.2269,8.7947,Germany,osterholz-scharmbeck,is_city
379,Weil am Rhein,47.5947,7.6108,Germany,weil am rhein,is_city
380,Ennepetal,51.3021,7.3425,Germany,ennepetal,is_city
381,Riesa,51.3081,13.2939,Germany,riesa,is_city
382,Taunusstein,50.1435,8.1606,Germany,taunusstein,is_city
383,Andernach,50.4397,7.4017,Germany,andernach,is_city
384,Meschede,51.3503,8.2836,Germany,meschede,is_city
385,Schwedt (Oder),53.0631,14.2831,Germany,schwedt (oder),is_city
386,Friedberg,48.35,10.9833,Germany,friedberg,is_city
387,Bad Hersfeld,50.8683,9.7067,Germany,bad hersfeld,is_city
388,Gaggenau,48.8039,8.3194,Germany,gaggenau,is_city
389,Merzig,49.4471,6.6312,Germany,merzig,is_city
390,Neuburg,48.7333,11.1833,Germany,neuburg,is_city
391,Werve,51.6667,7.6167,Germany,werve,is_city
392,Vaihingen an der Enz,48.9328,8.9564,Germany,vaihingen an der enz,is_city
393,Rietberg,51.8,8.4333,Germany,rietberg,is_city
394,Saalfeld,50.6506,11.3542,Germany,saalfeld,is_city
395,Bretten,49.0364,8.7061,Germany,bretten,is_city
396,Waltrop,51.6236,7.3972,Germany,waltrop,is_city
397,Oelde,51.8258,8.1436,Germany,oelde,is_city
398,Tonisvorst,51.3208,6.4931,Germany,tonisvorst,is_city
399,Gustrow,53.7939,12.1764,Germany,gustrow,is_city
401,Landsberg,48.0528,10.8689,Germany,landsberg,is_city
402,Northeim,51.7067,10.0011,Germany,northeim,is_city
403,Kelkheim (Taunus),50.138,8.4525,Germany,kelkheim (taunus),is_city
404,Springe,52.2167,9.55,Germany,springe,is_city
405,Unterschleissheim,48.2833,11.5667,Germany,unterschleissheim,is_city
406,Buhl,48.6953,8.135,Germany,buhl,is_city
407,Schwandorf,49.3236,12.0993,Germany,schwandorf,is_city
408,Hoxter,51.7667,9.3667,Germany,hoxter,is_city
409,Rosrath,50.9,7.1833,Germany,rosrath,is_city
410,Bad Zwischenahn,53.1836,8.0097,Germany,bad zwischenahn,is_city
411,Schwelm,51.2904,7.2972,Germany,schwelm,is_city
412,Rendsburg,54.3044,9.6644,Germany,rendsburg,is_city
413,Winnenden,48.8764,9.3978,Germany,winnenden,is_city
414,Bad Neuenahr-Ahrweiler,50.5447,7.1133,Germany,bad neuenahr-ahrweiler,is_city
415,Grimma,51.2386,12.7253,Germany,grimma,is_city
416,Wegberg,51.1333,6.2667,Germany,wegberg,is_city
417,Geislingen an der Steige,48.6244,9.8306,Germany,geislingen an der steige,is_city
418,Konigsbrunn,48.2689,10.8908,Germany,konigsbrunn,is_city
419,Henstedt-Ulzburg,53.7833,10.0,Germany,henstedt-ulzburg,is_city
420,Meissen,51.1636,13.4775,Germany,meissen,is_city
421,Leichlingen,51.1167,7.0167,Germany,leichlingen,is_city
422,Kevelaer,51.5833,6.25,Germany,kevelaer,is_city
423,Zeitz,51.0478,12.1383,Germany,zeitz,is_city
424,Emmendingen,48.1214,7.8492,Germany,emmendingen,is_city
425,Blankenfelde,52.35,13.4,Germany,blankenfelde,is_city
426,Sundern,51.3167,8.0,Germany,sundern,is_city
427,Baunatal,51.2589,9.4183,Germany,baunatal,is_city
428,Reinbek,53.5089,10.2483,Germany,reinbek,is_city
429,Mechernich,50.6,6.65,Germany,mechernich,is_city
430,Hattersheim,50.0697,8.4862,Germany,hattersheim,is_city
431,Wetter (Ruhr),51.3881,7.395,Germany,wetter (ruhr),is_city
432,Griesheim,49.8594,8.5525,Germany,griesheim,is_city
433,Arnstadt,50.8342,10.9464,Germany,arnstadt,is_city
434,Aschersleben,51.75,11.4667,Germany,aschersleben,is_city
435,Geilenkirchen,50.9653,6.1194,Germany,geilenkirchen,is_city
436,Rheinbach,50.6256,6.9491,Germany,rheinbach,is_city
437,Overath,50.9328,7.2839,Germany,overath,is_city
438,Baesweiler,50.9,6.1833,Germany,baesweiler,is_city
439,Leimen,49.3481,8.6911,Germany,leimen,is_city
440,Wangen im Allgau,47.6858,9.8342,Germany,wangen im allgau,is_city
441,Schloss Holte-Stukenbrock,51.8833,8.6167,Germany,schloss holte-stukenbrock,is_city
442,Lohne,52.6667,8.2386,Germany,lohne,is_city
443,Wiesloch,49.2942,8.6983,Germany,wiesloch,is_city
444,Hamminkeln,51.7319,6.5908,Germany,hamminkeln,is_city
445,Strausberg,52.5808,13.8814,Germany,strausberg,is_city
446,Lauf,49.5103,11.2772,Germany,lauf,is_city
447,Neckarsulm,49.1917,9.2244,Germany,neckarsulm,is_city
448,Heiligenhaus,51.3265,6.971,Germany,heiligenhaus,is_city
449,Sangerhausen,51.4667,11.3,Germany,sangerhausen,is_city
450,Hennigsdorf,52.6378,13.2036,Germany,hennigsdorf,is_city
451,Ehingen an der Donau,48.2833,9.7236,Germany,ehingen an der donau,is_city
452,Butzbach,50.4367,8.6622,Germany,butzbach,is_city
453,Nordenham,53.5,8.4667,Germany,nordenham,is_city
454,Hohen Neuendorf,52.6667,13.2831,Germany,hohen neuendorf,is_city
455,Ludwigsfelde,52.2997,13.2667,Germany,ludwigsfelde,is_city
456,Muhlacker,48.95,8.8392,Germany,muhlacker,is_city
457,Heppenheim,49.6415,8.645,Germany,heppenheim,is_city
458,Selm,51.6833,7.4833,Germany,selm,is_city
459,Weiterstadt,49.9,8.6,Germany,weiterstadt,is_city
460,Pfaffenhofen,48.5333,11.5167,Germany,pfaffenhofen,is_city
461,Kulmbach,50.1,11.4333,Germany,kulmbach,is_city
462,Sankt Wendel,49.4667,7.1667,Germany,sankt wendel,is_city
463,Teltow,52.4022,13.2706,Germany,teltow,is_city
464,Bad Honnef am Rhein,50.645,7.2269,Germany,bad honnef am rhein,is_city
465,Helmstedt,52.2281,11.0106,Germany,helmstedt,is_city
466,Bingen am Rhein,49.9669,7.895,Germany,bingen am rhein,is_city
467,Achern,48.6314,8.0739,Germany,achern,is_city
468,Zirndorf,49.45,10.95,Germany,zirndorf,is_city
469,Roth,49.2461,11.0911,Germany,roth,is_city
470,Lennestadt,51.1236,8.0681,Germany,lennestadt,is_city
471,Verl,51.8831,8.5167,Germany,verl,is_city
472,Lindau,47.5458,9.6839,Germany,lindau,is_city
473,Lubbecke,52.3081,8.6231,Germany,lubbecke,is_city
474,Rinteln,52.1906,9.0814,Germany,rinteln,is_city
475,Brilon,51.3956,8.5678,Germany,brilon,is_city
476,Stassfurt,51.8667,11.5667,Germany,stassfurt,is_city
477,Zittau,50.8961,14.8072,Germany,zittau,is_city
478,Plettenberg,51.2128,7.8715,Germany,plettenberg,is_city
479,Gross-Gerau,49.9214,8.4818,Germany,gross-gerau,is_city
480,Schleswig,54.5153,9.5697,Germany,schleswig,is_city
481,Geretsried,47.8667,11.4667,Germany,geretsried,is_city
482,Rottweil,48.1681,8.6247,Germany,rottweil,is_city
483,Friedrichsdorf,50.2569,8.6418,Germany,friedrichsdorf,is_city
484,Petershagen,52.3833,8.9667,Germany,petershagen,is_city
485,Pfungstadt,49.8056,8.6044,Germany,pfungstadt,is_city
486,Bad Oldesloe,53.8117,10.3742,Germany,bad oldesloe,is_city
487,Olpe,51.0289,7.8514,Germany,olpe,is_city
488,Rathenow,52.6,12.3333,Germany,rathenow,is_city
489,Senftenberg,51.5167,14.0167,Germany,senftenberg,is_city
490,Meiningen,50.55,10.4167,Germany,meiningen,is_city
491,Waldshut-Tiengen,47.6231,8.2144,Germany,waldshut-tiengen,is_city
492,Sonneberg,50.35,11.1667,Germany,sonneberg,is_city
493,Salzwedel,52.85,11.15,Germany,salzwedel,is_city
494,Calw,48.7144,8.7375,Germany,calw,is_city
495,Korbach,51.2719,8.8731,Germany,korbach,is_city
496,Starnberg,47.9972,11.3406,Germany,starnberg,is_city
497,Freudenstadt,48.4633,8.4111,Germany,freudenstadt,is_city
498,Mosbach,49.35,9.1333,Germany,mosbach,is_city
499,Husum,54.4769,9.0511,Germany,husum,is_city
500,Westerstede,53.25,7.9167,Germany,westerstede,is_city
501,Burg,52.2725,11.855,Germany,burg,is_city
502,Weilheim,47.8333,11.1333,Germany,weilheim,is_city
503,Bad Kissingen,50.2,10.0667,Germany,bad kissingen,is_city
504,Stadthagen,52.3247,9.2069,Germany,stadthagen,is_city
505,Apolda,51.0247,11.5139,Germany,apolda,is_city
506,Heide,54.1961,9.0933,Germany,heide,is_city
507,Osterode,51.7286,10.2522,Germany,osterode,is_city
508,Kitzingen,49.7333,10.1667,Germany,kitzingen,is_city
509,Sonthofen,47.5142,10.2817,Germany,sonthofen,is_city
510,Sondershausen,51.3667,10.8667,Germany,sondershausen,is_city
511,Aichach,48.45,11.1333,Germany,aichach,is_city
512,Germersheim,49.2167,8.3667,Germany,germersheim,is_city
513,Gunzburg,48.4525,10.2711,Germany,gunzburg,is_city
514,Luckenwalde,52.0831,13.1667,Germany,luckenwalde,is_city
515,Traunstein,47.8683,12.6433,Germany,traunstein,is_city
516,Muhldorf,48.2456,12.5228,Germany,muhldorf,is_city
517,Wittmund,53.5747,7.7808,Germany,wittmund,is_city
518,Bad Salzungen,50.8117,10.2333,Germany,bad salzungen,is_city
519,Lichtenfels,50.1333,11.0333,Germany,lichtenfels,is_city
520,Greiz,50.6547,12.1997,Germany,greiz,is_city
521,Donauworth,48.7184,10.777,Germany,donauworth,is_city
522,Torgau,51.5603,13.0056,Germany,torgau,is_city
523,Holzminden,51.8297,9.4483,Germany,holzminden,is_city
524,Dingolfing,48.6333,12.5,Germany,dingolfing,is_city
525,Annaberg-Buchholz,50.58,13.0022,Germany,annaberg-buchholz,is_city
526,Eschwege,51.1881,10.0528,Germany,eschwege,is_city
527,Haldensleben,52.2833,11.4167,Germany,haldensleben,is_city
528,Sommerda,51.1617,11.1169,Germany,sommerda,is_city
529,Prenzlau,53.3167,13.8667,Germany,prenzlau,is_city
530,Wittlich,49.9869,6.8897,Germany,wittlich,is_city
531,Dillingen,48.5667,10.4667,Germany,dillingen,is_city
532,Bad Tolz,47.7603,11.5567,Germany,bad tolz,is_city
533,Marktoberdorf,47.7667,10.6167,Germany,marktoberdorf,is_city
534,Alzey,49.7517,8.1161,Germany,alzey,is_city
535,Bad Durkheim,49.4618,8.1724,Germany,bad durkheim,is_city
536,Weissenburg,49.0306,10.9719,Germany,weissenburg,is_city
537,Bad Reichenhall,47.7247,12.8769,Germany,bad reichenhall,is_city
538,Forst (Lausitz),51.7333,14.6333,Germany,forst (lausitz),is_city
539,Parchim,53.4167,11.8333,Germany,parchim,is_city
540,Sigmaringen,48.0867,9.2164,Germany,sigmaringen,is_city
541,Bad Segeberg,53.9356,10.3089,Germany,bad segeberg,is_city
542,Heilbad Heiligenstadt,51.3775,10.1344,Germany,heilbad heiligenstadt,is_city
543,Eutin,54.1378,10.6181,Germany,eutin,is_city
544,Cham,49.2183,12.6658,Germany,cham,is_city
545,Diepholz,52.6072,8.3711,Germany,diepholz,is_city
546,Kronach,50.2411,11.3281,Germany,kronach,is_city
547,Kelheim,48.9167,11.8667,Germany,kelheim,is_city
548,Bad Neustadt,50.3219,10.2161,Germany,bad neustadt,is_city
549,Kunzelsau,49.2833,9.6833,Germany,kunzelsau,is_city
550,Mindelheim,48.0333,10.4667,Germany,mindelheim,is_city
551,Brake,53.3333,8.4833,Germany,brake,is_city
552,Bitburg,49.9747,6.5256,Germany,bitburg,is_city
553,Ratzeburg,53.7017,10.7567,Germany,ratzeburg,is_city
554,Jever,53.5744,7.9008,Germany,jever,is_city
555,Lubben (Spreewald),51.95,13.9,Germany,lubben (spreewald),is_city
556,Montabaur,50.4375,7.8258,Germany,montabaur,is_city
557,Erbach,49.6569,8.9931,Germany,erbach,is_city
558,Lauterbach,50.6378,9.3944,Germany,lauterbach,is_city
559,Hassfurt,50.0353,10.5123,Germany,hassfurt,is_city
560,Eichstatt,48.8919,11.1839,Germany,eichstatt,is_city
561,Tauberbischofsheim,49.6225,9.6628,Germany,tauberbischofsheim,is_city
563,Pfarrkirchen,48.4419,12.9443,Germany,pfarrkirchen,is_city
564,Ebersberg,48.0833,11.9667,Germany,ebersberg,is_city
565,Perleberg,53.0667,11.8667,Germany,perleberg,is_city
566,Bad Fallingbostel,52.8675,9.6967,Germany,bad fallingbostel,is_city
567,Hildburghausen,50.4261,10.7289,Germany,hildburghausen,is_city
568,Miesbach,47.789,11.8338,Germany,miesbach,is_city
569,Bad Schwalbach,50.1401,8.0694,Germany,bad schwalbach,is_city
570,Regen,48.97,13.1264,Germany,regen,is_city
571,Eisenberg,50.9667,11.9,Germany,eisenberg,is_city
572,Altotting,48.2264,12.6759,Germany,altotting,is_city
573,Bad Ems,50.3381,7.7106,Germany,bad ems,is_city
574,Luchow,52.9667,11.15,Germany,luchow,is_city
575,Miltenberg,49.7039,9.2644,Germany,miltenberg,is_city
576,Wunsiedel,50.0374,11.9994,Germany,wunsiedel,is_city
577,Herzberg,51.6831,13.2331,Germany,herzberg,is_city
578,Plon,54.1622,10.4214,Germany,plon,is_city
579,Schleiz,50.5833,11.8167,Germany,schleiz,is_city
580,Tirschenreuth,49.8789,12.3369,Germany,tirschenreuth,is_city
581,Beeskow,52.1667,14.25,Germany,beeskow,is_city
582,Daun,50.1986,6.8319,Germany,daun,is_city
583,Simmern,49.9833,7.5167,Germany,simmern,is_city
584,Kirchheimbolanden,49.6664,8.0117,Germany,kirchheimbolanden,is_city
585,Freyung,48.8075,13.5475,Germany,freyung,is_city
586,Birkenfeld,49.65,7.1833,Germany,birkenfeld,is_city
587,Altenkirchen,50.6872,7.6456,Germany,altenkirchen,is_city
589,Seelow,52.5167,14.3831,Germany,seelow,is_city
590,Kusel,49.5347,7.3981,Germany,kusel,is_city
591,Cochem,50.1469,7.1667,Germany,cochem,is_city
592,Offenbach,50.1006,8.7665,Germany,offenbach,is_city
593,Frankenthal,49.5436,8.3639,Germany,frankenthal,is_city
594,Weiden,49.6768,12.1561,Germany,weiden,is_city
595,Nienburg,52.6461,9.2208,Germany,nienburg,is_city
596,Verden,52.9234,9.2349,Germany,verden,is_city
597,Kothen,51.7518,11.9709,Germany,kothen,is_city
598,Rotenburg,53.1113,9.4108,Germany,rotenburg,is_city
599,Karlstadt,49.9603,9.7724,Germany,karlstadt,is_city
601,Homberg,51.0299,9.4026,Germany,homberg,is_city
602,Garmisch-Partenkirchen,47.4921,11.0958,Germany,garmisch-partenkirchen,is_city
